[
  {
    "lat":55.754769,  "lon":37.708038,
    "category": "Корпуса",
    "name": "Главный Корпус (А, Б, В, Г, Д)",
    "uniqueIcon": "gk"
  },
  {
    "lat":55.755819, "lon":37.707418,
    "category": "Корпуса",
    "name": "Корпус А",
    "uniqueIcon": "a"
  },
  {
    "lat":55.756638, "lon":37.703239,
    "category": "Корпуса",
    "name": "Корпус Е",
    "uniqueIcon": "e"
  },
  {
    "lat":55.754594,  "lon":37.706824,
    "category": "Корпуса",
    "name": "Корпуса Ж и З",
    "uniqueIcon": "jz"
  },
  {
    "lat":55.753874, "lon":37.708248,
    "category": "Корпуса",
    "name": "Корпус И",
    "uniqueIcon": "i"
  },
  {
    "lat":55.753510, "lon":37.710140,
    "category": "Корпуса",
    "name": "Корпуса К и Л",
    "uniqueIcon": "kl"
  },
  {
    "lat":55.756076,  "lon":37.704160,
    "category": "Корпуса",
    "name": "Корпуса М и Э, Библиотека",
    "uniqueIcon": "m"
  },
  {
    "lat":55.757029,  "lon":37.704363,
    "category": "Корпуса",
    "name": "Корпус Н",
    "uniqueIcon": "n"
  },
  {
    "lat":55.753724, "lon":37.706880,
    "category": "Корпуса",
    "name": "Корпус Р",
    "uniqueIcon": "r"
  },
  {
    "lat":55.757518,  "lon":37.702661,
    "category": "Корпуса",
    "name": "Корпус С, ВУЦ",
    "uniqueIcon": "s"
  },
  {
    "lat":55.756356, "lon":37.709086,
    "category": "Корпуса",
    "name": "Корпус Т",
    "uniqueIcon": "t"
  },
  {
    "lat":55.757750, "lon":37.705593,
    "category": "Корпуса",
    "name": "Корпус Ф",
    "uniqueIcon": "f"
  },
  {
    "lat":55.758299, "lon":37.704715,
    "category": "Корпуса",
    "name": "Бассейн МЭИ"
  },
  {
    "lat":55.757422, "lon":37.708220,
    "category": "Корпуса",
    "name": "ДК МЭИ"
  },
  {
    "lat":55.759593, "lon":37.704489,
    "category": "Корпуса",
    "name": "Санаторий-профилакторий МЭИ"
  },
  {
    "lat":55.762844, "lon":37.703363,
    "category": "Корпуса",
    "name": "Стадион Энергия"
  },
  {
    "lat":55.756712, "lon":37.704347,
    "category": "Кафедры",
    "name":"Кафедра иностранных языков",
    "howToGet":"Аудитория М-913"
  },
  {
    "lat":55.756163, "lon":37.709450,
    "category": "Кафедры",
    "name":"Кафедра инженерной теплофизики им. В.А.Кириллина",
    "howToGet":"Аудитория Т-205"
  },
  {
    "lat":55.756484, "lon":37.708759,
    "category": "Кафедры",
    "name":"Кафедра ТЭС",
    "howToGet":"Аудитория Т-509"
  },
  {
    "lat":55.756352, "lon":37.709016,
    "category": "Кафедры",
    "name":"Кафедра АЭС",
    "howToGet":"Аудитория Т-302"
  },
  {
    "lat":55.756746, "lon":37.703223,
    "category": "Кафедры",
    "name":"Кафедра формирования и обработки радиосигналов",
    "howToGet":"Аудитория Е-420"
  },
  {
    "lat":55.754428, "lon":37.707289,
    "category": "Кафедры",
    "name":"Кафедра радиотехнических систем",
    "howToGet":"Аудитория Ж-400"
  },
  {
    "lat":55.755809, "lon":37.707584,
    "category": "Кафедры",
    "name":"Кафедра физики им. В.А. Фабриканта",
    "howToGet":"Аудитория А-201"
  },
  {
    "lat":55.753668, "lon":37.709383,
    "category": "Кафедры",
    "name":"Кафедра менеджмента в энергетике и промышл.",
    "howToGet":"Аудитория К-518"
  },
  {
    "lat":55.757347, "lon":37.702470,
    "category": "Кафедры",
    "name":"Кафедра дизайна",
    "howToGet":"Аудитория С-605"
  },
  {
    "lat":55.762251, "lon":37.703611,
    "category": "Кафедры",
    "name":"Кафедра физкультуры и спорта",
    "howToGet":"стадион 'Энергия'"
  },
  {
    "lat":55.754731, "lon":37.708972,
    "category": "Кафедры",
    "name":"Кафедра гидроэнергетики и возоб. источ. энергии",
    "howToGet":"Аудитория Г-213"
  },
  {
    "lat":55.753490, "lon":37.710100,
    "category": "Кафедры",
    "name":"Кафедра инженерной экологии и охраны труда",
    "howToGet":"Аудитория Л-502"
  },
  {
    "lat":55.755394, "lon":37.707309,
    "category": "Кафедры",
    "name":"Кафедра технологии металлов",
    "howToGet":"Аудитория Б-102"
  },
  {
    "lat":55.756121, "lon":37.707991,
    "category": "Кафедры",
    "name":"Кафедра общей физики и ядерного синтеза",
    "howToGet":"Аудитория А-110"
  },
  {
    "lat":55.754731, "lon":37.708972,
    "category": "Кафедры",
    "name":"Кафедра модел. и проект. энергетических установок",
    "howToGet":"Аудитория Д-319"
  },
  {
    "lat":55.754877, "lon":37.708185,
    "category": "Кафедры",
    "name":"Кафедра диагност. информ. технологий",
    "howToGet":"В-310"
  },
  {
    "lat":55.755657, "lon":37.707466,
    "category": "Кафедры",
    "name":"Кафедра инновационных технологий наукоемких отраслей",
    "howToGet":"Аудитория А-238"
  },
  {
    "lat":55.756496, "lon":37.704178,
    "category": "Кафедры",
    "name":"Кафедра электротех. комплексов автономных объектов и электр. транспорта",
    "howToGet":"Аудитория М-612"
  },
  {
    "lat":55.755250, "lon":37.707499,
    "category": "Кафедры",
    "name":"Кафедра высшей математики",
    "howToGet":"Аудитория Б-308"
  },
  {
    "lat":55.754589, "lon":37.709400,
    "category": "Кафедры",
    "name":"Кафедра релейной защиты и автоматизации энергосистем",
    "howToGet":"Аудитория Д-104"
  },
  {
    "lat":55.754080, "lon":37.706480,
    "category": "Кафедры",
    "name":"Кафедра истории и культурологии",
    "howToGet":"Аудитория З-211"
  },
  {
    "lat":55.756496, "lon":37.704178,
    "category": "Кафедры",
    "name":"Кафедра рекламы, связей с общественностью и лингвистики",
    "howToGet":"Аудитория М-909"
  },
  {
    "lat":55.765881, "lon":37.705587,
    "category": "Общежития",
    "name": "Общежитие Синичка (3к1)"
  },
  {
    "lat":55.766314, "lon":37.705075,
    "category": "Общежития",
    "name": "Общежитие Синичка (3к1А)"
  },
  {
    "lat":55.760591, "lon":37.704298,
    "category": "Общежития",
    "name": "Общежитие (д.6)"
  },
  {
    "lat":55.759732, "lon":37.705920,
    "category": "Общежития",
    "name": "Общежитие (д.10)"
  },
  {
    "lat":55.759262, "lon":37.708090,
    "category": "Общежития",
    "name": "Общежитие (д.14)"
  },
  {
    "lat":55.757713, "lon":37.711786,
    "category": "Общежития",
    "name": "Общежитие №18"
  },
  {
    "lat":55.756712, "lon":37.702093,
    "category": "Точки интереса",
    "name": "Авиация",
    "uniqueIcon": "aviation"
  },
  {
    "lat":55.752234, "lon":37.716413,
    "category": "Точки интереса",
    "name": "Билайн",
    "uniqueIcon": "beeline"
  },
  {
    "lat":55.753371, "lon":37.716444,
    "category": "Точки интереса",
    "name": "Мегафон",
    "uniqueIcon": "megaphone"
  },
  {
    "lat":55.754108, "lon":37.715432,
    "category": "Точки интереса",
    "name": "МТС",
    "uniqueIcon": "mts"
  },
  {
    "lat":55.754705, "lon":37.707957,
    "category": "Точки интереса",
    "name": "Сачок"
  },
  {
    "lat":55.747875, "lon":37.705079,
    "category": "Точки интереса",
    "name": "Сбербанк в ТЦ 'Город Лефортово'",
    "uniqueIcon": "sber"
  },
  {
    "lat":55.753621, "lon":37.713512,
    "category": "Точки интереса",
    "name": "Сбербанк на Красноказарменной",
    "uniqueIcon": "sber"
  },
  {
    "lat":55.749720, "lon":37.710771,
    "category": "Точки интереса",
    "name": "Сбербанк на шоссе Энтузиастов",
    "uniqueIcon": "sber"
  },
  {
    "lat":55.766457, "lon":37.699481,
    "category": "Точки интереса",
    "name": "Сквер Героям Отечественной Войны"
  },
  {
    "lat":55.753849, "lon":37.710329,
    "category": "Еда",
    "name": "Big Black Cup Coffee",
    "uniqueIcon": "bbcc"
  },
  {
    "lat":55.764577, "lon":37.700793,
    "category": "Еда",
    "name": "Pub Daddy",
    "uniqueIcon": "pubdaddy"
  },
  {
    "lat":55.752827, "lon":37.716034,
    "category": "Еда",
    "name": "One and Double",
    "uniqueIcon": "1&2"
  },
  {
    "lat":55.753981, "lon":37.715291,
    "category": "Еда",
    "name": "ROLL X"
  },
  {
    "lat":55.750991, "lon":37.715764,
    "category": "Еда",
    "name": "ROSTIC'S",
    "uniqueIcon": "rostics"
  },
  {
    "lat":55.753420, "lon":37.716662,
    "category": "Еда",
    "name": "Бургер Кинг",
    "uniqueIcon": "bk"
  },
  {
    "lat":55.755883, "lon":37.704254,
    "category": "Еда",
    "name": "Гарвард",
    "uniqueIcon": "harvard"
  },
  {
    "lat":55.758881, "lon":37.709152,
    "category": "Еда",
    "name": "ДоДо Пицца",
    "uniqueIcon": "dodo"
  },
  {
    "lat":55.757683, "lon":37.712157,
    "category": "Еда",
    "name": "Домино Пицца",
    "uniqueIcon": "domino"
  },
  {
    "lat":55.754005, "lon":37.709890,
    "category": "Еда",
    "name": "Манга Рамен Суши бар",
    "uniqueIcon": "manga"
  },
  {
    "lat":55.756415, "lon":37.711740,
    "category": "Еда",
    "name": "Столовая №10"
  },
  {
    "lat":55.759071, "lon":37.709613,
    "category": "Еда",
    "name": "Столовая ЦИАМ"
  },
  {
    "lat":55.753334, "lon":37.716478,
    "category": "Еда",
    "name": "Сыто Пьяно",
    "uniqueIcon": "sytpian"
  },
  {
    "lat":55.753376, "lon":37.710484,
    "category": "Еда",
    "name": "Таёжный (и другое)",
    "uniqueIcon": "olen"
  },
  {
    "lat":55.758480, "lon":37.694614,
    "category": "Еда",
    "name": "Тарас Бульба",
    "uniqueIcon": "taras"
  },
  {
    "lat":55.759040, "lon":37.708712,
    "category": "Еда",
    "name": "Твоё кафе"
  },
  {
    "lat":55.758286, "lon":37.700594,
    "category": "Еда",
    "name": "Телиани"
  },
  {
    "lat":55.753603, "lon":37.716286,
    "category": "Еда",
    "name": "Теремок",
    "uniqueIcon": "terem"
  },
  {
    "lat":55.756653, "lon":37.715236,
    "category": "Еда",
    "name": "Трактир 'Лефортово'",
    "uniqueIcon": "trlefortovo"
  },
  {
    "lat":55.756652, "lon":37.716525,
    "category": "Еда",
    "name": "Шарманка"
  },
  {
    "lat":55.752356, "lon":37.716314,
    "category": "Еда",
    "name": "Шеф"
  },
  {
    "lat":55.753560, "lon":37.716308,
    "category": "Еда",
    "name": "Якитория",
    "uniqueIcon": "yakit"
  }
]
